[
    {
        "group": "PEL", 
        "name": "AKEL", 
        "country": "Cyprus", 
        "wikipedia_site": "http://en.wikipedia.org/wiki/AKEL", 
        "lat": "35.1614986", 
        "lng": "33.3619454"
    }, 
    {
        "group": "PEL", 
        "name": "Bloco de Esquerda", 
        "country": "Portugal", 
        "wikipedia_site": "http://en.wikipedia.org/wiki/Bloco_de_Esquerda", 
        "lat": "38.7189719", 
        "lng": "-9.1354135"
    }, 
    {
        "group": "PEL", 
        "name": "DIE LINKE", 
        "country": "Germany", 
        "wikipedia_site": "http://en.wikipedia.org/wiki/DIE_LINKE", 
        "lat": "52.5200727", 
        "lng": "13.4137781"
    }, 
    {
        "group": "PEL", 
        "name": "Folkebev\u00e6gelsen mod EU", 
        "country": "Denmark", 
        "wikipedia_site": "http://en.wikipedia.org/wiki/Folkebev%C3%A6gelsen_mod_EU", 
        "lat": "55.677761", 
        "lng": "12.587974"
    }, 
    {
        "group": "PEL", 
        "name": "Front de gauche", 
        "country": "France", 
        "wikipedia_site": "http://en.wikipedia.org/wiki/Front_de_Gauche", 
        "lat": "48.856614", 
        "lng": "2.3522219"
    }, 
    {
        "group": "PEL", 
        "name": "HC (SPL)", 
        "country": "Latvia", 
        "wikipedia_site": "http://en.wikipedia.org/wiki/Socialist_Party_of_Latvia", 
        "lat": "56.9827599", 
        "lng": "24.16939"
    }, 
    {
        "group": "PEL", 
        "name": "Hrvatski laburisti - Stranka rada", 
        "country": "Croatia", 
        "wikipedia_site": "http://en.wikipedia.org/wiki/Croatian_Labourists_%E2%80%93_Labour_Party", 
        "lat": "45.8124846", 
        "lng": "15.962454"
    }, 
    {
        "group": "PEL", 
        "name": "Izquierda Unida", 
        "country": "Spain", 
        "wikipedia_site": "http://en.wikipedia.org/wiki/United_Left_%28Spain%29", 
        "lat": "40.4560726", 
        "lng": "-3.6457374"
    }, 
    {
        "group": "PEL", 
        "name": "Kommunistiko Komma Elladas", 
        "country": "Greece", 
        "wikipedia_site": "http://en.wikipedia.org/wiki/Kommunistiko_Komma_Elladas", 
        "lat": "38.0350546", 
        "lng": "23.7471783"
    }, 
    {
        "group": "PEL", 
        "name": "Komunistick\u00e1 strana \u010cech a Moravy", 
        "country": "Czech Republic", 
        "wikipedia_site": "http://en.wikipedia.org/wiki/Komunistick%C3%A1_strana_%C4%8Cech_a_Moravy", 
        "lat": "50.0829389", 
        "lng": "14.4292597"
    }, 
    {
        "group": "PEL", 
        "name": "Partido Comunista Portugu\u00eas", 
        "country": "Portugal", 
        "wikipedia_site": "http://en.wikipedia.org/wiki/Partido_Comunista_Portugu%C3%AAs", 
        "lat": "38.74521", 
        "lng": "-9.1591585"
    }, 
    {
        "group": "PEL", 
        "name": "Sinn F\u00e9in", 
        "country": "Ireland", 
        "wikipedia_site": "http://en.wikipedia.org/wiki/Sinn_F%C3%A9in", 
        "lat": "53.3526891", 
        "lng": "-6.2641954"
    }, 
    {
        "group": "PEL", 
        "name": "Socialist Party", 
        "country": "Ireland", 
        "wikipedia_site": "http://en.wikipedia.org/wiki/Socialist_Party_%28Ireland%29", 
        "lat": "53.343464", 
        "lng": "-6.2848344"
    }, 
    {
        "group": "PEL", 
        "name": "Socialistische Partij", 
        "country": "Netherlands", 
        "wikipedia_site": "http://en.wikipedia.org/wiki/Socialist_Party_%28Netherlands%29", 
        "lat": "52.1540126", 
        "lng": "5.3805988"
    }, 
    {
        "group": "PEL", 
        "name": "SYRIZA", 
        "country": "Greece", 
        "wikipedia_site": "http://en.wikipedia.org/wiki/SYRIZA", 
        "lat": "37.9851702", 
        "lng": "23.7360041"
    }, 
    {
        "group": "PEL", 
        "name": "V\u00e4nsterpartiet", 
        "country": "Sweden", 
        "wikipedia_site": "http://en.wikipedia.org/wiki/V%C3%A4nsterpartiet", 
        "lat": "59.3316431", 
        "lng": "18.0479589"
    }, 
    {
        "group": "PES", 
        "name": "Arbetarepartiet- Social- demokraterna", 
        "country": "Swedem", 
        "wikipedia_site": "http://en.wikipedia.org/wiki/Swedish_Social_Democratic_Party", 
        "lat": "59.339252", 
        "lng": "18.060365"
    }, 
    {
        "group": "PES", 
        "name": "Bulgarian Socialist party", 
        "country": "Bulgaria", 
        "wikipedia_site": "http://en.wikipedia.org/wiki/Bulgarian_Socialist_Party", 
        "lat": "42.6963507", 
        "lng": "23.3182715"
    }, 
    {
        "group": "PES", 
        "name": "\u010cesk\u00e1 strana soci\u00e1ln\u011b demokratick\u00e1 ", 
        "country": "Czech Republic", 
        "wikipedia_site": "http://en.wikipedia.org/wiki/%C4%8Cesk%C3%A1_strana_soci%C3%A1ln%C4%9B_demokratick%C3%A1", 
        "lat": "50.0875018", 
        "lng": "14.4314703"
    }, 
    {
        "group": "PES", 
        "name": "Dimokratiko Komma", 
        "country": "Cyprus", 
        "wikipedia_site": "http://en.wikipedia.org/wiki/Dimokratiko_Komma", 
        "lat": "35.078336", 
        "lng": "33.389854"
    }, 
    {
        "group": "PES", 
        "name": "Harmony Party", 
        "country": "Latvia", 
        "wikipedia_site": "http://en.wikipedia.org/wiki/Social_Democratic_Party_%22Harmony%22", 
        "lat": "56.951294", 
        "lng": "24.106713"
    }, 
    {
        "group": "PES", 
        "name": "Labour Party (Ireland)", 
        "country": "Ireland", 
        "wikipedia_site": "http://en.wikipedia.org/wiki/Labour_Party_%28Ireland%29", 
        "lat": "53.337308", 
        "lng": "-6.254491"
    }, 
    {
        "group": "PES", 
        "name": "Labour Party", 
        "country": "UK", 
        "wikipedia_site": "http://en.wikipedia.org/wiki/Labour_party_uk", 
        "lat": "51.498468", 
        "lng": "-0.135898"
    }, 
    {
        "group": "PES", 
        "name": "Lietuvos socialdemokrat\u0173 partija ", 
        "country": "Lithuania", 
        "wikipedia_site": "http://en.wikipedia.org/wiki/Lietuvos_Socialdemokrat%C5%B3_Partija", 
        "lat": "54.684551", 
        "lng": "25.289691"
    }, 
    {
        "group": "PES", 
        "name": "Magyar Szocialista P\u00e1rt", 
        "country": "Hungary", 
        "wikipedia_site": "en.wikipedia.org/wiki/Magyar_Szocialista_P\u00e1rt", 
        "lat": "47.50604", 
        "lng": "19.060434"
    }, 
    {
        "group": "PES", 
        "name": "Movement of Social Democrats EDEK (Kinima Sosialdimokrato", 
        "country": "Cyprus", 
        "wikipedia_site": "http://en.wikipedia.org/wiki/EDEK", 
        "lat": "35.072336", 
        "lng": "33.383854"
    }, 
    {
        "group": "PES", 
        "name": "Panellinio Socialistiko Kinima", 
        "country": "Greece", 
        "wikipedia_site": "http://en.wikipedia.org/wiki/Panellinio_Sosialistiko_Kinima", 
        "lat": "37.971513", 
        "lng": "23.701104"
    }, 
    {
        "group": "PES", 
        "name": "Parti ouvrier socialiste luxembourgeoi", 
        "country": "Luxembourg", 
        "wikipedia_site": "http://en.wikipedia.org/wiki/Luxembourg_Socialist_Workers%27_Party", 
        "lat": "49.593068", 
        "lng": "6.12008"
    }, 
    {
        "group": "PES", 
        "name": "Parti Socialiste", 
        "country": "France", 
        "wikipedia_site": "http://en.wikipedia.org/wiki/Socialist_Party_%28France%29", 
        "lat": "48.859738", 
        "lng": "2.323019"
    }, 
    {
        "group": "PES", 
        "name": "Parti socialiste (Belgium)", 
        "country": "Belgium", 
        "wikipedia_site": "http://en.wikipedia.org/wiki/Parti_socialiste_%28Belgium%29", 
        "lat": "42.6963507", 
        "lng": "23.3182715"
    }, 
    {
        "group": "PES", 
        "name": "Partido Socialista Obrero Espa\u00f1ol", 
        "country": "Spain", 
        "wikipedia_site": "http://en.wikipedia.org/wiki/Partido_Socialista_Obrero_Espa%C3%B1ol", 
        "lat": "40.428484", 
        "lng": "-3.719404"
    }, 
    {
        "group": "PES", 
        "name": "Partidul Social Democrat - PSD", 
        "country": "Romania", 
        "wikipedia_site": "http://en.wikipedia.org/wiki/Social_Democratic_Party_%28Romania%29", 
        "lat": "44.461128", 
        "lng": "26.081225"
    }, 
    {
        "group": "PES", 
        "name": "Partij van de Arbeid", 
        "country": "Netherlands", 
        "wikipedia_site": "http://en.wikipedia.org/wiki/Partij_van_de_Arbeid", 
        "lat": "52.3776884", 
        "lng": "4.8902435"
    }, 
    {
        "group": "PES", 
        "name": "Partit dels Socialistes de Catalunya (PSC-PSOE)", 
        "country": "Spain", 
        "wikipedia_site": "http://en.wikipedia.org/wiki/Partit_dels_Socialistes_de_Catalunya", 
        "lat": "41.384424", 
        "lng": "2.139791"
    }, 
    {
        "group": "PES", 
        "name": "Partit Laburista", 
        "country": "Malta", 
        "wikipedia_site": "http://en.wikipedia.org/wiki/Partit_Laburista", 
        "lat": "35.886963", 
        "lng": "14.493686"
    }, 
    {
        "group": "PES", 
        "name": "Partito Democratico", 
        "country": "Italy", 
        "wikipedia_site": "http://en.wikipedia.org/wiki/Partito_Democratico", 
        "lat": "41.908068", 
        "lng": "12.453269"
    }, 
    {
        "group": "PES", 
        "name": "Samostalna demokratska srpska stranka", 
        "country": "Poland", 
        "wikipedia_site": "http://en.wikipedia.org/wiki/Social_Democracy_of_Poland", 
        "lat": "45.351361", 
        "lng": "18.996357"
    }, 
    {
        "group": "PES", 
        "name": "SMER-Soci\u00e1lna demokracia", 
        "country": "Slovak Republic", 
        "wikipedia_site": "http://en.wikipedia.org/wiki/Direction_%E2%80%93_Social_Democracy", 
        "lat": "48.145892", 
        "lng": "17.107137"
    }, 
    {
        "group": "PES", 
        "name": "Socialdemokratiet", 
        "country": "Denmark", 
        "wikipedia_site": "http://en.wikipedia.org/wiki/Socialdemokratiet", 
        "lat": "55.6781176", 
        "lng": "12.555098"
    }, 
    {
        "group": "PES", 
        "name": "Socialni demokrati", 
        "country": "Slovenia", 
        "wikipedia_site": "http://en.wikipedia.org/wiki/Socialni_demokrati", 
        "lat": "46.056451", 
        "lng": "14.50807"
    }, 
    {
        "group": "PES", 
        "name": "Socijaldemokratska partija Hrvatske", 
        "country": "Croatia", 
        "wikipedia_site": "http://en.wikipedia.org/wiki/Socijaldemokratska_partija_Hrvatske", 
        "lat": "45.813122", 
        "lng": "15.984668"
    }, 
    {
        "group": "PES", 
        "name": "Sojusz Lewicy Demokratycznej - Unia Pracy", 
        "country": "Poland", 
        "wikipedia_site": "http://en.wikipedia.org/wiki/Sojusz_Lewicy_Demokratycznej_-_Unia_Pracy", 
        "lat": "52.23282", 
        "lng": "21.011276"
    }, 
    {
        "group": "PES", 
        "name": "Sotsiaaldemokraatlik Erakond", 
        "country": "Estonia", 
        "wikipedia_site": "http://en.wikipedia.org/wiki/Sotsiaaldemokraatlik_Erakond", 
        "lat": "59.438621", 
        "lng": "24.7630931"
    }, 
    {
        "group": "PES", 
        "name": "Sozialdemokratische Partei Deutschlands", 
        "country": "Germany", 
        "wikipedia_site": "http://en.wikipedia.org/wiki/Sozialdemokratische_Partei_Deutschlands", 
        "lat": "52.499676", 
        "lng": "13.388502"
    }, 
    {
        "group": "PES", 
        "name": "Sozialdemokratische Partei \u00d6sterreichs", 
        "country": "Austria", 
        "wikipedia_site": "http://en.wikipedia.org/wiki/Sozialdemokratische_Partei_%C3%96sterreichs", 
        "lat": "48.2110011", 
        "lng": "16.3620546"
    }, 
    {
        "group": "PES", 
        "name": "Suomen Sosialidemokraattinen Puolue/Finlands Socialdemokratiska Parti", 
        "country": "Finland", 
        "wikipedia_site": "http://en.wikipedia.org/wiki/Social_Democratic_Party_of_Finland", 
        "lat": "60.1781545", 
        "lng": "24.9467268"
    }, 
    {
        "group": "ALDE", 
        "name": "Open Vlaamse Liberalen en Democraten", 
        "country": "Belgium", 
        "wikipedia_site": "http://en.wikipedia.org/wiki/Open_Vlaamse_Liberalen_en_Democraten", 
        "lat": "50.8503199", 
        "lng": "4.3485771"
    }, 
    {
        "group": "ALDE", 
        "name": "Mouvement R\u00e9formateur", 
        "country": "Belgium", 
        "wikipedia_site": "http://en.wikipedia.org/wiki/Mouvement_R%C3%A9formateur", 
        "lat": "50.8339596", 
        "lng": "4.3515619"
    }, 
    {
        "group": "ALDE", 
        "name": "Movement for Rights and Freedoms", 
        "country": "Bulgaria", 
        "wikipedia_site": "http://en.wikipedia.org/wiki/Movement_for_Rights_and_Freedoms", 
        "lat": "42.6085352", 
        "lng": "23.6014097"
    }, 
    {
        "group": "ALDE", 
        "name": "National Movement for Stability and Progress", 
        "country": "Bulgaria", 
        "wikipedia_site": "http://en.wikipedia.org/wiki/National_Movement_for_Stability_and_Progress", 
        "lat": "42.6979807", 
        "lng": "23.3342443"
    }, 
    {
        "group": "ALDE", 
        "name": "Eesti Reformierakond", 
        "country": "Estonia", 
        "wikipedia_site": "http://en.wikipedia.org/wiki/Eesti_Reformierakond", 
        "lat": "59.4296415", 
        "lng": "24.7417508"
    }, 
    {
        "group": "ALDE", 
        "name": "Suomen Keskusta", 
        "country": "Finland", 
        "wikipedia_site": "http://en.wikipedia.org/wiki/Suomen_Keskusta", 
        "lat": "60.1764772", 
        "lng": "24.9257952"
    }, 
    {
        "group": "ALDE", 
        "name": "Svenska folkpartiet", 
        "country": "Finland", 
        "wikipedia_site": "http://en.wikipedia.org/wiki/Svenska_Folkpartiet", 
        "lat": "60.1690525", 
        "lng": "24.936651"
    }, 
    {
        "group": "ALDE", 
        "name": "Mouvement D\u00e9mocrate", 
        "country": "France", 
        "wikipedia_site": "http://en.wikipedia.org/wiki/Mouvement_D%C3%A9mocrate", 
        "lat": "48.8610979", 
        "lng": "2.3076692"
    }, 
    {
        "group": "ALDE", 
        "name": "Citoyennet\u00e9 Action Participation pour le 21\u00e8me si\u00e8cle", 
        "country": "France", 
        "wikipedia_site": "http://en.wikipedia.org/wiki/Citoyennet%C3%A9_Action_Participation_pour_le_21%C3%A8me_si%C3%A8cle", 
        "lat": "48.87719", 
        "lng": "2.3100047"
    }, 
    {
        "group": "ALDE", 
        "name": "Freie Demokratische Partei", 
        "country": "Germany", 
        "wikipedia_site": "http://en.wikipedia.org/wiki/Freie_Demokratische_Partei", 
        "lat": "52.5236997", 
        "lng": "13.3856291"
    }, 
    {
        "group": "ALDE", 
        "name": "Drassi", 
        "country": "Greece", 
        "wikipedia_site": "http://en.wikipedia.org/wiki/Drassi", 
        "lat": "37.983917", 
        "lng": "23.7293599"
    }, 
    {
        "group": "ALDE", 
        "name": "Fianna F\u00e1il Party", 
        "country": "Ireland", 
        "wikipedia_site": "http://en.wikipedia.org/wiki/Fianna_F%C3%A1il", 
        "lat": "53.3393627", 
        "lng": "-6.2451967"
    }, 
    {
        "group": "ALDE", 
        "name": "Italia dei Valori - Lista Di Pietro", 
        "country": "Italy", 
        "wikipedia_site": "http://en.wikipedia.org/wiki/Italia_dei_Valori_-_Lista_Di_Pietro", 
        "lat": "41.9009976", 
        "lng": "12.4816402"
    }, 
    {
        "group": "ALDE", 
        "name": "Lietuvos Respublikos liberal\u0173 s\u0105j\u016bdis", 
        "country": "Lithuania", 
        "wikipedia_site": "http://en.wikipedia.org/wiki/Lietuvos_Respublikos_Liberal%C5%B3_s%C4%85j%C5%ABdis", 
        "lat": "54.689263", 
        "lng": "25.2684399"
    }, 
    {
        "group": "ALDE", 
        "name": "Darbo partija", 
        "country": "Lithuania", 
        "wikipedia_site": "http://en.wikipedia.org/wiki/Darbo_partija", 
        "lat": "54.689765", 
        "lng": "25.266889"
    }, 
    {
        "group": "ALDE", 
        "name": "Parti d\u00e9mocratique", 
        "country": "Luxembourg", 
        "wikipedia_site": "http://en.wikipedia.org/wiki/Democratic_Party_%28Luxembourg%29", 
        "lat": "49.6089777", 
        "lng": "6.1335062"
    }, 
    {
        "group": "ALDE", 
        "name": "Democraten 66", 
        "country": "Netherlands", 
        "wikipedia_site": "http://en.wikipedia.org/wiki/Democraten_66", 
        "lat": "52.0817533", 
        "lng": "4.3130767"
    }, 
    {
        "group": "ALDE", 
        "name": "Volkspartij voor Vrijheid en Democratie", 
        "country": "Netherlands", 
        "wikipedia_site": "http://en.wikipedia.org/wiki/Volkspartij_voor_Vrijheid_en_Democratie", 
        "lat": "52.0913422", 
        "lng": "4.3059732"
    }, 
    {
        "group": "ALDE", 
        "name": "Partidul Na\u0163ional Liberal", 
        "country": "Romania", 
        "wikipedia_site": "http://en.wikipedia.org/wiki/National_Liberal_Party_%28Romania%29", 
        "lat": "44.4679767", 
        "lng": "26.0875983"
    }, 
    {
        "group": "ALDE", 
        "name": "\u013dudov\u00e1 strana - Hnutie za demokratick\u00e9 Slovensko", 
        "country": "Slovak Republic", 
        "wikipedia_site": "http://en.wikipedia.org/wiki/%C4%BDudov%C3%A1_strana_-_Hnutie_za_demokratick%C3%A9_Slovensko", 
        "lat": "48.1458923", 
        "lng": "17.1071373"
    }, 
    {
        "group": "ALDE", 
        "name": "Liberalna Demokracija Slovenije", 
        "country": "Slovenia", 
        "wikipedia_site": "http://en.wikipedia.org/wiki/Liberalna_demokracija_Slovenije", 
        "lat": "46.0564509", 
        "lng": "14.5080702"
    }, 
    {
        "group": "ALDE", 
        "name": "ZARES-Nova Politika", 
        "country": "Slovenia", 
        "wikipedia_site": "http://en.wikipedia.org/wiki/Zares", 
        "lat": "46.056048", 
        "lng": "14.507905"
    }, 
    {
        "group": "ALDE", 
        "name": "Partido Nacionalista Vasco - Euzko Alderdi Jeltzalea", 
        "country": "Spain", 
        "wikipedia_site": "http://en.wikipedia.org/wiki/Partido_Nacionalista_Vasco", 
        "lat": "43.2631804", 
        "lng": "-2.9276465"
    }, 
    {
        "group": "ALDE", 
        "name": "Converg\u00e8ncia Democr\u00e0tica de Catalunya", 
        "country": "Spain", 
        "wikipedia_site": "http://en.wikipedia.org/wiki/Converg%C3%A8ncia_Democr%C3%A0tica_de_Catalunya", 
        "lat": "41.3974738", 
        "lng": "2.1604115"
    }, 
    {
        "group": "ALDE", 
        "name": "Centerpartiet", 
        "country": "Sweden", 
        "wikipedia_site": "http://en.wikipedia.org/wiki/Centerpartiet", 
        "lat": "59.325255", 
        "lng": "18.0674818"
    }, 
    {
        "group": "ALDE", 
        "name": "Folkpartiet liberalerna", 
        "country": "Sweden", 
        "wikipedia_site": "http://en.wikipedia.org/wiki/Folkpartiet_liberalerna", 
        "lat": "59.3253721", 
        "lng": "18.0673047"
    }, 
    {
        "group": "ALDE", 
        "name": "Liberal Democrats Party", 
        "country": "United Kingdom", 
        "wikipedia_site": "http://en.wikipedia.org/wiki/Liberal_Democrats", 
        "lat": "51.501106", 
        "lng": "-0.1284734"
    }, 
    {
        "group": "Greens/EFA", 
        "name": "The Greens \u2013 The Green Alternative", 
        "country": "Austria", 
        "wikipedia_site": "http://en.wikipedia.org/wiki/The_Greens_%E2%80%93_The_Green_Alternative", 
        "lat": "48.1999307", 
        "lng": "16.3485744"
    }, 
    {
        "group": "Greens/EFA", 
        "name": "Ecolo", 
        "country": "Belgium", 
        "wikipedia_site": "http://en.wikipedia.org/wiki/Ecolo", 
        "lat": "50.4583111", 
        "lng": "4.8419195"
    }, 
    {
        "group": "Greens/EFA", 
        "name": "Green", 
        "country": "Belgium", 
        "wikipedia_site": "http://en.wikipedia.org/wiki/Groen_%28political_party%29", 
        "lat": "50.8394914", 
        "lng": "4.3345297"
    }, 
    {
        "group": "Greens/EFA", 
        "name": "New Flemish Alliance", 
        "country": "Belgium", 
        "wikipedia_site": "http://en.wikipedia.org/wiki/New_Flemish_Alliance", 
        "lat": "50.8489769", 
        "lng": "4.3637635"
    }, 
    {
        "group": "Greens/EFA", 
        "name": "Socialist People's Party", 
        "country": "Denmark", 
        "wikipedia_site": "http://en.wikipedia.org/wiki/Socialist_People%27s_Party_%28Denmark%29", 
        "lat": "55.6758333", 
        "lng": "12.5788889"
    }, 
    {
        "group": "Greens/EFA", 
        "name": "Green League", 
        "country": "Finland", 
        "wikipedia_site": "http://en.wikipedia.org/wiki/Green_League", 
        "lat": "60.1634851", 
        "lng": "24.9383471"
    }, 
    {
        "group": "Greens/EFA", 
        "name": "Europe Ecology \u2013 The Greens", 
        "country": "France", 
        "wikipedia_site": "http://en.wikipedia.org/wiki/Europe_Ecology_%E2%80%93_The_Greens", 
        "lat": "48.8828864", 
        "lng": "2.3668774"
    }, 
    {
        "group": "Greens/EFA", 
        "name": "Party of the Corsican Nation", 
        "country": "France", 
        "wikipedia_site": "http://en.wikipedia.org/wiki/Party_of_the_Corsican_Nation", 
        "lat": "42.6963833", 
        "lng": "9.4468279"
    }, 
    {
        "group": "Greens/EFA", 
        "name": "Alliance '90/The Greens", 
        "country": "Germany", 
        "wikipedia_site": "http://en.wikipedia.org/wiki/Alliance_%2790/The_Greens", 
        "lat": "52.5288837", 
        "lng": "13.3793171"
    }, 
    {
        "group": "Greens/EFA", 
        "name": "Ecologist Greens", 
        "country": "Greece", 
        "wikipedia_site": "http://en.wikipedia.org/wiki/Ecologist_Greens", 
        "lat": "37.965563", 
        "lng": "23.729356"
    }, 
    {
        "group": "Greens/EFA", 
        "name": "Federation of the Greens", 
        "country": "Italy", 
        "wikipedia_site": "http://en.wikipedia.org/wiki/Federation_of_the_Greens", 
        "lat": "41.9056403", 
        "lng": "12.4955343"
    }, 
    {
        "group": "Greens/EFA", 
        "name": "For Human Rights in United Latvia", 
        "country": "Latvia", 
        "wikipedia_site": "http://en.wikipedia.org/wiki/For_Human_Rights_in_United_Latvia", 
        "lat": "56.9573106", 
        "lng": "24.128491"
    }, 
    {
        "group": "Greens/EFA", 
        "name": "The Greens", 
        "country": "Luxembourg", 
        "wikipedia_site": "http://en.wikipedia.org/wiki/The_Greens_%28Luxembourg%29", 
        "lat": "49.604769", 
        "lng": "6.1320934"
    }, 
    {
        "group": "Greens/EFA", 
        "name": "GreenLeft", 
        "country": "Netherlands", 
        "wikipedia_site": "http://en.wikipedia.org/wiki/GreenLeft", 
        "lat": "52.086064", 
        "lng": "5.122584"
    }, 
    {
        "group": "Greens/EFA", 
        "name": "Equo", 
        "country": "Spain", 
        "wikipedia_site": "http://en.wikipedia.org/wiki/Equo", 
        "lat": "40.4523802", 
        "lng": "-3.68022"
    }, 
    {
        "group": "Greens/EFA", 
        "name": "Esquerra Republicana de Catalunya", 
        "country": "Spain", 
        "wikipedia_site": "http://en.wikipedia.org/wiki/Esquerra_Republicana_de_Catalunya", 
        "lat": "41.3826332", 
        "lng": "2.1513423"
    }, 
    {
        "group": "Greens/EFA", 
        "name": "Iniciativa per Catalunya Verds", 
        "country": "Spain", 
        "wikipedia_site": "http://en.wikipedia.org/wiki/Iniciativa_per_Catalunya_Verds", 
        "lat": "41.382234", 
        "lng": "2.1779805"
    }, 
    {
        "group": "Greens/EFA", 
        "name": "Eusko Alkartasuna", 
        "country": "Spain", 
        "wikipedia_site": "http://en.wikipedia.org/wiki/Eusko_Alkartasuna", 
        "lat": "43.3018139", 
        "lng": "-2.0109963"
    }, 
    {
        "group": "Greens/EFA", 
        "name": "BNG", 
        "country": "Spain", 
        "wikipedia_site": "http://en.wikipedia.org/wiki/Bloque_Nacionalista_Galego", 
        "lat": "42.8872826", 
        "lng": "-8.5324822"
    }, 
    {
        "group": "Greens/EFA", 
        "name": "Green Party", 
        "country": "Sweden", 
        "wikipedia_site": "http://en.wikipedia.org/wiki/Green_Party_%28Sweden%29", 
        "lat": "59.3202472", 
        "lng": "18.0677552"
    }, 
    {
        "group": "Greens/EFA", 
        "name": "Pirate Party", 
        "country": "Sweden", 
        "wikipedia_site": "http://en.wikipedia.org/wiki/Pirate_Party_%28Sweden%29", 
        "lat": "59.32893", 
        "lng": "18.06491"
    }, 
    {
        "group": "Greens/EFA", 
        "name": "Green Party of England and Wales", 
        "country": "United Kingdom", 
        "wikipedia_site": "http://en.wikipedia.org/wiki/Green_Party_of_England_and_Wales", 
        "lat": "51.5244343", 
        "lng": "-0.0845572"
    }, 
    {
        "group": "Greens/EFA", 
        "name": "Scottish National Party", 
        "country": "United Kingdom", 
        "wikipedia_site": "http://en.wikipedia.org/wiki/Plaid_Cymru_%E2%80%93_Party_of_Wales", 
        "lat": "55.920966", 
        "lng": "-3.171598"
    }, 
    {
        "group": "Greens/EFA", 
        "name": "Plaid Cymru \u2013 Party of Wales", 
        "country": "United Kingdom", 
        "wikipedia_site": "http://en.wikipedia.org/wiki/Scottish_National_Party", 
        "lat": "55.950966", 
        "lng": "-3.177598"
    }, 
    {
        "group": "NI - SPAIN", 
        "name": "Converg\u00e8ncia i Uni\u00f3", 
        "country": "Spain", 
        "wikipedia_site": "http://en.wikipedia.org/wiki/Convergence_and_Union", 
        "lat": "41.3974738", 
        "lng": "2.1604115"
    }, 
    {
        "group": "NI - SPAIN", 
        "name": "Coalici\u00f3n Canaria", 
        "country": "Spain", 
        "wikipedia_site": "http://en.wikipedia.org/wiki/Canarian_Coalition", 
        "lat": "28.1075151", 
        "lng": "-15.4191638"
    }, 
    {
        "group": "NI - SPAIN", 
        "name": "Aralar", 
        "country": "Spain", 
        "wikipedia_site": "http://en.wikipedia.org/wiki/Aralar_Party", 
        "lat": "42.8166272", 
        "lng": "-1.6485363"
    }, 
    {
        "group": "NI - SPAIN", 
        "name": "Bildu", 
        "country": "Spain", 
        "wikipedia_site": "http://en.wikipedia.org/wiki/Bildu", 
        "lat": "43.3119413", 
        "lng": "-1.9821103"
    }, 
    {
        "group": "NI - SPAIN", 
        "name": "Confederacion Pirata", 
        "country": "Spain", 
        "wikipedia_site": "http://es.wikipedia.org/wiki/Partido_Pirata_%28Espa%C3%B1a%29", 
        "lat": "40.3156807", 
        "lng": "-3.8743016"
    }, 
    {
        "group": "NI - SPAIN", 
        "name": "Compromis", 
        "country": "Spain", 
        "wikipedia_site": "http://es.wikipedia.org/wiki/Compromis", 
        "lat": "39.4077853", 
        "lng": "-0.3615113"
    }, 
    {
        "group": "NI - SPAIN", 
        "name": "Chunta Aragonesista", 
        "country": "Spain", 
        "wikipedia_site": "http://es.wikipedia.org/wiki/Chunta_Aragonesista", 
        "lat": "41.6516912", 
        "lng": "-0.8949809"
    }, 
    {
        "group": "NI - SPAIN", 
        "name": "Podemos", 
        "country": "Spain", 
        "wikipedia_site": "http://en.wikipedia.org/wiki/Podemos_%28Spanish_political_party%29", 
        "lat": "40.4124013", 
        "lng": "-3.6983522"
    }, 
    {
        "group": "EPP", 
        "name": "Social democratic party", 
        "country": "Portugal", 
        "wikipedia_site": "http://en.wikipedia.org/wiki/Social_Democratic_Party_%28Portugal%29", 
        "lat": "38.7083486", 
        "lng": "-9.1641845"
    }, 
    {
        "group": "EPP", 
        "name": "Democratic and social centre", 
        "country": "Portugal", 
        "wikipedia_site": "http://en.wikipedia.org/wiki/Democratic_and_Social_Center_-_People%27s_Party", 
        "lat": "38.7117235", 
        "lng": "-9.1356438"
    }, 
    {
        "group": "EPP", 
        "name": "Austrian People's Party (\u00d6VP)", 
        "country": "Austria", 
        "wikipedia_site": "http://en.wikipedia.org/wiki/Austrian_People%27s_Party", 
        "lat": "48.2099605", 
        "lng": "16.3564337"
    }, 
    {
        "group": "EPP", 
        "name": "Christian Democratic and Flemish (CD&V)", 
        "country": "Belgium", 
        "wikipedia_site": "http://en.wikipedia.org/wiki/Christen-Democratisch_en_Vlaams", 
        "lat": "50.8438361", 
        "lng": "4.3764921"
    }, 
    {
        "group": "EPP", 
        "name": "Humanist Democratic Centre (cdH)", 
        "country": "Belgium", 
        "wikipedia_site": "http://en.wikipedia.org/wiki/Centre_d%C3%A9mocrate_humaniste", 
        "lat": "50.8465201", 
        "lng": "4.3727621"
    }, 
    {
        "group": "EPP", 
        "name": "Citizens for European Development of Bulgaria (GERB)", 
        "country": "Bulgaria", 
        "wikipedia_site": "http://en.wikipedia.org/wiki/Citizens_for_European_Development_of_Bulgaria", 
        "lat": "42.6847412", 
        "lng": "23.3190056"
    }, 
    {
        "group": "EPP", 
        "name": "Democrats for a Strong Bulgaria", 
        "country": "Bulgaria", 
        "wikipedia_site": "http://en.wikipedia.org/wiki/Democrats_for_a_Strong_Bulgaria", 
        "lat": "42.6867309", 
        "lng": "23.3273678"
    }, 
    {
        "group": "EPP", 
        "name": "Union of the Democratic Forces", 
        "country": "Bulgaria", 
        "wikipedia_site": "http://en.wikipedia.org/wiki/Union_of_Democratic_Forces_(Bulgaria)", 
        "lat": "42.6897747", 
        "lng": "23.323158"
    }, 
    {
        "group": "EPP", 
        "name": "Democratic Party", 
        "country": "Bulgaria", 
        "wikipedia_site": "http://en.wikipedia.org/wiki/Democratic_Party_(Bulgaria)", 
        "lat": "42.6988109", 
        "lng": "23.3376802"
    }, 
    {
        "group": "EPP", 
        "name": "Croatian Democratic Union (HDZ)", 
        "country": "Croatia", 
        "wikipedia_site": "http://en.wikipedia.org/wiki/Croatian_Democratic_Union", 
        "lat": "45.8106015", 
        "lng": "15.9875514"
    }, 
    {
        "group": "EPP", 
        "name": "Croatian Peasant Party (HSS)", 
        "country": "Croatia", 
        "wikipedia_site": "http://en.wikipedia.org/wiki/Croatian_Peasant_Party", 
        "lat": "45.8226733", 
        "lng": "16.029477"
    }, 
    {
        "group": "EPP", 
        "name": "Democratic Rally (DISY)", 
        "country": "Cyprus", 
        "wikipedia_site": "http://en.wikipedia.org/wiki/Democratic_Rally", 
        "lat": "51.476406", 
        "lng": "-3.166052"
    }, 
    {
        "group": "EPP", 
        "name": "TOP 09", 
        "country": "Czech Republic", 
        "wikipedia_site": "http://en.wikipedia.org/wiki/TOP_09", 
        "lat": "50.0834633", 
        "lng": "14.4049046"
    }, 
    {
        "group": "EPP", 
        "name": "Christian and Democratic Union \u2013 Czechoslovak People's Party (KDU\u2013\u010cSL)", 
        "country": "Czech Republic", 
        "wikipedia_site": "http://en.wikipedia.org/wiki/Christian_and_Democratic_Union_%E2%80%93_Czechoslovak_People%27s_Party", 
        "lat": "50.0750689", 
        "lng": "14.4350772"
    }, 
    {
        "group": "EPP", 
        "name": "Conservative People's Party", 
        "country": "Denmark", 
        "wikipedia_site": "http://en.wikipedia.org/wiki/Conservative_People%27s_Party_%28Denmark%29", 
        "lat": "55.679914", 
        "lng": "12.5890467"
    }, 
    {
        "group": "EPP", 
        "name": "Christian Democrats", 
        "country": "Denmark", 
        "wikipedia_site": "http://en.wikipedia.org/wiki/Christian_Democrats_(Denmark)", 
        "lat": "55.6777216", 
        "lng": "12.5332658"
    }, 
    {
        "group": "EPP", 
        "name": "Pro Patria and Res Publica Union (IRL)", 
        "country": "Estonia", 
        "wikipedia_site": "http://en.wikipedia.org/wiki/Pro_Patria_and_Res_Publica_Union", 
        "lat": "59.4347184", 
        "lng": "24.7286521"
    }, 
    {
        "group": "EPP", 
        "name": "Kansallinen Kokoomus | KOK", 
        "country": "Finland", 
        "wikipedia_site": "http://fi.wikipedia.org/wiki/Kansallinen_Kokoomus", 
        "lat": "60.1675181", 
        "lng": "24.9340397"
    }, 
    {
        "group": "EPP", 
        "name": "Kristillisdemokraatit | KD", 
        "country": "Finland", 
        "wikipedia_site": "http://en.wikipedia.org/wiki/Christian_Democrats_%28Finland%29", 
        "lat": "60.1927539", 
        "lng": "24.936173"
    }, 
    {
        "group": "EPP", 
        "name": "Union for a Popular Movement (UMP)", 
        "country": "France", 
        "wikipedia_site": "http://en.wikipedia.org/wiki/Union_for_a_Popular_Movement", 
        "lat": "48.8405244", 
        "lng": "2.3031824"
    }, 
    {
        "group": "EPP", 
        "name": "Christian Democratic Union (CDU)", 
        "country": "Germany", 
        "wikipedia_site": "http://en.wikipedia.org/wiki/Christian_Democratic_Union_%28Germany%29", 
        "lat": "52.50645", 
        "lng": "13.35129"
    }, 
    {
        "group": "EPP", 
        "name": "Christian Social Union of Bavaria (CSU)", 
        "country": "Germany", 
        "wikipedia_site": "http://en.wikipedia.org/wiki/Christian_Social_Union_in_Bavaria", 
        "lat": "48.14997", 
        "lng": "11.54877"
    }, 
    {
        "group": "EPP", 
        "name": "New Democracy", 
        "country": "Greece", 
        "wikipedia_site": "http://en.wikipedia.org/wiki/New_Democracy_%28Greece%29", 
        "lat": "37.9448768", 
        "lng": "23.7010453"
    }, 
    {
        "group": "EPP", 
        "name": "Fidesz \u2013 Hungarian Civic Union", 
        "country": "Hungary", 
        "wikipedia_site": "http://en.wikipedia.org/wiki/Fidesz", 
        "lat": "47.492968", 
        "lng": "19.0652749"
    }, 
    {
        "group": "EPP", 
        "name": "Christian Democratic People's Party", 
        "country": "Hungary", 
        "wikipedia_site": "http://en.wikipedia.org/wiki/Christian_Democratic_People%27s_Party_%28Hungary%29", 
        "lat": "47.5067392", 
        "lng": "19.0857893"
    }, 
    {
        "group": "EPP", 
        "name": "Fine Gael", 
        "country": "Ireland", 
        "wikipedia_site": "http://en.wikipedia.org/wiki/Fine_Gael", 
        "lat": "53.337539", 
        "lng": "-6.2463674"
    }, 
    {
        "group": "EPP", 
        "name": "Union of the Centre (UDC)", 
        "country": "Italy", 
        "wikipedia_site": "http://en.wikipedia.org/wiki/Union_of_Christian_and_Centre_Democrats", 
        "lat": "41.9046092", 
        "lng": "12.4838153"
    }, 
    {
        "group": "EPP", 
        "name": "Il Popolo della Libert\u00e0 | PdL", 
        "country": "Italy", 
        "wikipedia_site": "http://it.wikipedia.org/wiki/Il_Popolo_della_Libert%C3%A0", 
        "lat": "41.8723889", 
        "lng": "12.4801802"
    }, 
    {
        "group": "EPP", 
        "name": "Unione dei Democratici per l'Europa - Popolari per il ", 
        "country": "Italy", 
        "wikipedia_site": "http://it.wikipedia.org/wiki/Popolari_UDEUR", 
        "lat": "41.8223889", 
        "lng": "12.4851802"
    }, 
    {
        "group": "EPP", 
        "name": "S\u00fcdtiroler Volkspartei | SVP", 
        "country": "Italy", 
        "wikipedia_site": "http://en.wikipedia.org/wiki/South_Tyrolean_People%27s_Party", 
        "lat": "46.5004989", 
        "lng": "11.3617944"
    }, 
    {
        "group": "EPP", 
        "name": "Unity", 
        "country": "Latvia", 
        "wikipedia_site": "http://en.wikipedia.org/wiki/Unity_(Latvian_political_party)", 
        "lat": "56.945359", 
        "lng": "24.1146226"
    }, 
    {
        "group": "EPP", 
        "name": "Homeland Union \u2013 Lithuanian Christian Democrats (TS-LKD)", 
        "country": "Lithuania", 
        "wikipedia_site": "http://en.wikipedia.org/wiki/Homeland_Union", 
        "lat": "54.6839932", 
        "lng": "25.2838057"
    }, 
    {
        "group": "EPP", 
        "name": "Chr\u00ebschtlech Sozial Vollekspartei | CSV", 
        "country": "Luxembourg", 
        "wikipedia_site": "http://en.wikipedia.org/wiki/Christian_Social_People's_Party", 
        "lat": "49.6103966", 
        "lng": "6.1329776"
    }, 
    {
        "group": "EPP", 
        "name": "Nationalist Party", 
        "country": "Malta", 
        "wikipedia_site": "http://en.wikipedia.org/wiki/Nationalist_Party_%28Malta%29", 
        "lat": "35.8989085", 
        "lng": "14.5145528"
    }, 
    {
        "group": "EPP", 
        "name": "Christian Democratic Appeal (CDA)", 
        "country": "Netherlands", 
        "wikipedia_site": "http://en.wikipedia.org/wiki/Christian_Democratic_Appeal", 
        "lat": "52.0721398", 
        "lng": "4.3037388"
    }, 
    {
        "group": "EPP", 
        "name": "Civic Platform (PO)", 
        "country": "Poland", 
        "wikipedia_site": "http://en.wikipedia.org/wiki/Civic_Platform", 
        "lat": "35.893056", 
        "lng": "14.493611"
    }, 
    {
        "group": "EPP", 
        "name": "Polish People's Party (PSL)", 
        "country": "Poland", 
        "wikipedia_site": "http://en.wikipedia.org/wiki/Polish_People%27s_Party", 
        "lat": "52.230126", 
        "lng": "21.0197178"
    }, 
    {
        "group": "EPP", 
        "name": "Democratic Liberal Party (PD-L)", 
        "country": "Romania", 
        "wikipedia_site": "http://en.wikipedia.org/wiki/Liberal_Democratic_Party_(Romania)", 
        "lat": "44.4568623", 
        "lng": "26.0885101"
    }, 
    {
        "group": "EPP", 
        "name": "Christian Democratic National Peasants' Party (PN\u0162-CD)", 
        "country": "Romania", 
        "wikipedia_site": "http://en.wikipedia.org/wiki/Christian_Democratic_National_Peasants'_Party", 
        "lat": "46.761026", 
        "lng": "23.5906619"
    }, 
    {
        "group": "EPP", 
        "name": "Democratic Union of Hungarians in Romania (UDMR)", 
        "country": "Romania", 
        "wikipedia_site": "http://en.wikipedia.org/wiki/Democratic_Union_of_Hungarians_in_Romania", 
        "lat": "46.7734374", 
        "lng": "23.59572"
    }, 
    {
        "group": "EPP", 
        "name": "Christian Democratic Movement (KDH)", 
        "country": "Slovak Republic", 
        "wikipedia_site": "http://en.wikipedia.org/wiki/Christian_Democratic_Movement", 
        "lat": "48.1519794", 
        "lng": "17.1493584"
    }, 
    {
        "group": "EPP", 
        "name": "Slovak Democratic and Christian Union \u2013 Democratic Party (SDK\u00da-DS)", 
        "country": "Slovak Republic", 
        "wikipedia_site": "http://en.wikipedia.org/wiki/Slovak_Democratic_and_Christian_Union_%E2%80%93_Democratic_Party", 
        "lat": "48.1566166", 
        "lng": "17.1641473"
    }, 
    {
        "group": "EPP", 
        "name": "Most-Hid", 
        "country": "Slovak Republic", 
        "wikipedia_site": "http://en.wikipedia.org/wiki/Most%E2%80%93H%C3%ADd", 
        "lat": "48.5039876", 
        "lng": "17.8643667"
    }, 
    {
        "group": "EPP", 
        "name": "Party of the Hungarian Coalition (MKP)", 
        "country": "Slovak Republic", 
        "wikipedia_site": "http://en.wikipedia.org/wiki/Party_of_the_Hungarian_Community", 
        "lat": "48.1578853", 
        "lng": "17.1152102"
    }, 
    {
        "group": "EPP", 
        "name": "Slovenian Democratic Party (SDS)", 
        "country": "Slovenia", 
        "wikipedia_site": "http://en.wikipedia.org/wiki/Slovenian_Democratic_Party", 
        "lat": "46.0629996", 
        "lng": "14.5065871"
    }, 
    {
        "group": "EPP", 
        "name": "Slovenian People's Party (SLS)", 
        "country": "Slovenia", 
        "wikipedia_site": "http://en.wikipedia.org/wiki/Slovenian_People's_Party", 
        "lat": "46.0421873", 
        "lng": "14.501715"
    }, 
    {
        "group": "EPP", 
        "name": "New Slovenia (NSi)", 
        "country": "Slovenia", 
        "wikipedia_site": "http://en.wikipedia.org/wiki/New_Slovenia", 
        "lat": "46.0527089", 
        "lng": "14.5014028"
    }, 
    {
        "group": "EPP", 
        "name": "People's Party (PP)", 
        "country": "Spain", 
        "wikipedia_site": "http://es.wikipedia.org/wiki/Partido_Popular", 
        "lat": "40.4269892", 
        "lng": "-3.6941374"
    }, 
    {
        "group": "EPP", 
        "name": "Democratic Union of Catalonia (UDC)", 
        "country": "Spain", 
        "wikipedia_site": "http://es.wikipedia.org/wiki/Uni%C3%B3_Democr%C3%A0tica_de_Catalunya", 
        "lat": "41.3919518", 
        "lng": "2.1837275"
    }, 
    {
        "group": "EPP", 
        "name": "Moderate Party", 
        "country": "Sweden", 
        "wikipedia_site": "http://en.wikipedia.org/wiki/Moderate_Party", 
        "lat": "59.3240108", 
        "lng": "18.0694187"
    }, 
    {
        "group": "EPP", 
        "name": "Christian Democrats", 
        "country": "Sweden", 
        "wikipedia_site": "http://en.wikipedia.org/wiki/Christian_Democrats_(Sweden)", 
        "lat": "59.3251805", 
        "lng": "18.0666731"
    }, 
    {
        "group": "AECR", 
        "name": "Civic Democratic Party", 
        "country": "Czech Republic", 
        "wikipedia_site": "http://en.wikipedia.org/wiki/Civic_Democratic_Party_(Czech_Republic)", 
        "lat": "50.0516442", 
        "lng": "14.4428083"
    }, 
    {
        "group": "AECR", 
        "name": "Conservatives and Social Reformers", 
        "country": "Italy", 
        "wikipedia_site": "http://en.wikipedia.org/wiki/Conservatives_and_Social_Reformers", 
        "lat": "45.4656999", 
        "lng": "9.2058786"
    }, 
    {
        "group": "AECR", 
        "name": "TB/LNNK", 
        "country": "Latvia", 
        "wikipedia_site": "http://en.wikipedia.org/wiki/For_Fatherland_and_Freedom/LNNK", 
        "lat": "56.9519214", 
        "lng": "24.1054151"
    }, 
    {
        "group": "AECR", 
        "name": "Electoral Action of Poles in Lithuania", 
        "country": "Lithuania", 
        "wikipedia_site": "http://en.wikipedia.org/wiki/Electoral_Action_of_Poles_in_Lithuania", 
        "lat": "54.6831899", 
        "lng": "25.2893433"
    }, 
    {
        "group": "AECR", 
        "name": "Alternative Democratic Reform Party", 
        "country": "Luxembourg", 
        "wikipedia_site": "http://en.wikipedia.org/wiki/Alternative_Democratic_Reform_Party", 
        "lat": "49.61238", 
        "lng": "6.133316"
    }, 
    {
        "group": "AECR", 
        "name": "Law and Justice", 
        "country": "Poland", 
        "wikipedia_site": "http://en.wikipedia.org/wiki/Law_and_Justice", 
        "lat": "52.2240852", 
        "lng": "20.9907091"
    }, 
    {
        "group": "AECR", 
        "name": "Poland Comes First", 
        "country": "Poland", 
        "wikipedia_site": "http://en.wikipedia.org/wiki/Poland_Comes_First", 
        "lat": "52.2237308", 
        "lng": "21.0225152"
    }, 
    {
        "group": "AECR", 
        "name": "New Republic", 
        "country": "Romania", 
        "wikipedia_site": "http://en.wikipedia.org/wiki/New_Republic_(Romania)", 
        "lat": "44.442268", 
        "lng": "26.0704"
    }, 
    {
        "group": "AECR", 
        "name": "Civic Conservative Party", 
        "country": "Slovak Republic", 
        "wikipedia_site": "http://en.wikipedia.org/wiki/Civic_Conservative_Party", 
        "lat": "48.148453", 
        "lng": "17.104513"
    }, 
    {
        "group": "AECR", 
        "name": "Conservative Party", 
        "country": "United Kingdom", 
        "wikipedia_site": "http://en.wikipedia.org/wiki/Conservative_Party_(UK)", 
        "lat": "51.4923903", 
        "lng": "-0.1254962"
    }, 
    {
        "group": "AECR", 
        "name": "Ulster Unionist Party", 
        "country": "United Kingdom", 
        "wikipedia_site": "http://en.wikipedia.org/wiki/Ulster_Unionist_Party", 
        "lat": "54.5954092", 
        "lng": "-5.9023584"
    }, 
    {
        "group": "MELD", 
        "name": "Europe for Freedom and Democracy ", 
        "country": "", 
        "wikipedia_site": "", 
        "lat": "", 
        "lng": ""
    }, 
    {
        "group": "MELD", 
        "name": "Danish People\u2019s Party (Dansk Folkeparti)", 
        "country": "Denmark", 
        "wikipedia_site": "http://en.wikipedia.org/wiki/Danish_People's_Party", 
        "lat": "55.6758333", 
        "lng": "12.5788889"
    }, 
    {
        "group": "MELD", 
        "name": "True Finns (Perussuomalaiset)", 
        "country": "Finland:", 
        "wikipedia_site": "http://en.wikipedia.org/wiki/Finns_Party", 
        "lat": "60.1644925", 
        "lng": "24.9435853"
    }, 
    {
        "group": "MELD", 
        "name": "Movement for France (Mouvement pour la France)", 
        "country": "France", 
        "wikipedia_site": "http://en.wikipedia.org/wiki/Movement_for_France", 
        "lat": "48.8564913", 
        "lng": "2.3085292"
    }, 
    {
        "group": "MELD", 
        "name": "Popular Orthodox Rally (\u039b\u03b1\u03ca\u03ba\u03cc\u03c2 \u039f\u03c1\u03b8\u03cc\u03b4\u03bf\u03be\u03bf\u03c2 \u03a3\u03c5\u03bd\u03b1\u03b3\u03b5\u03c1\u03bc\u03cc\u03c2)", 
        "country": "Greece", 
        "wikipedia_site": "http://en.wikipedia.org/wiki/Popular_Orthodox_Rally", 
        "lat": "37.9656307", 
        "lng": "23.7289027"
    }, 
    {
        "group": "MELD", 
        "name": "Lega Nord", 
        "country": "Italy", 
        "wikipedia_site": "http://es.wikipedia.org/wiki/Liga_Norte", 
        "lat": "45.5178687", 
        "lng": "9.1775318"
    }, 
    {
        "group": "MELD", 
        "name": " Io amo l\u2019Italia", 
        "country": "Italy", 
        "wikipedia_site": "http://en.wikipedia.org/wiki/I_Love_Italy", 
        "lat": "41.8723889", 
        "lng": "12.4801802"
    }, 
    {
        "group": "MELD", 
        "name": "Solidarna Polska", 
        "country": "Poland", 
        "wikipedia_site": "http://pl.wikipedia.org/wiki/Solidarna_Polska", 
        "lat": "52.223703", 
        "lng": "21.0229063"
    }
]